%time,field.left_wheel,field.right_wheel
1304220670987705945,0.0,0.0
1304220671027704000,0.0,0.0
1304220671068614959,0.0,0.0
1304220671111063957,0.0,0.0
1304220671148858070,0.0,0.0
1304220671188875913,0.0,0.0
1304220671227889060,0.0,0.0
1304220671263916015,0.0,0.0
1304220671307878971,0.0,0.0
1304220671343841075,0.0,0.0
1304220671387845993,0.0,0.0
1304220671427921056,0.0,0.0
1304220671467812061,0.0,0.0
1304220671507877111,0.0,0.0
1304220671547902107,0.0,0.0
1304220671587894916,0.0,0.0
1304220671627779960,0.0,0.0
1304220671664932966,0.0,0.0
1304220671708834886,0.0,0.0
1304220671748934030,0.0,0.0
1304220671783598899,0.0,0.0
1304220671828833103,0.0,0.0
1304220671864865064,0.0,0.0
1304220671904856920,0.0,0.0
1304220671944852113,0.0,0.0
1304220671987328052,0.0,0.0
1304220672027266979,0.0,0.0
1304220672067250013,0.0,0.0
1304220672108623981,0.0,0.0
1304220672147424936,0.0,0.0
1304220672187395095,0.0,0.0
1304220672235430002,0.0,0.0
1304220672267400026,0.0,0.0
1304220672315398931,0.0,0.0
1304220672351411104,0.0,0.0
1304220672387373924,0.0,0.0
1304220672439388990,0.0,0.0
1304220672479377985,0.0,0.0
1304220672511435985,0.0,0.0
1304220672547379016,0.0,0.0
1304220672587440013,0.0,0.0
1304220672627356052,0.0,0.0
1304220672667325973,0.0,0.0
1304220672707406997,0.0,0.0
1304220672747447967,0.0,0.0
1304220672787375926,0.0,0.0
1304220672827406883,0.0,0.0
1304220672867324113,0.0,0.0
1304220672907265901,0.0,0.0
1304220672947390079,0.0,0.0
1304220672995412111,0.0,0.0
1304220673039416074,0.0,0.0
1304220673071414947,0.0,0.0
1304220673111357927,0.0,0.0
1304220673147413969,0.0,0.0
1304220673195406913,0.0,0.0
1304220673231383085,0.0,0.0
1304220673271437883,0.0,0.0
1304220673311405897,0.0,0.0
1304220673347460031,0.0,0.0
1304220673387404918,0.0,0.0
1304220673427289962,0.0,0.0
1304220673467324018,0.0,0.0
1304220673507266998,0.0,0.0
1304220673547420024,0.0,0.0
1304220673587332963,0.0,0.0
1304220673627329111,0.0,0.0
1304220673667304992,0.0,0.0
1304220673707334995,0.0,0.0
1304220673747302055,0.0,0.0
1304220673787241935,0.0,0.0
1304220673827377080,0.0,0.0
1304220673867413997,0.0,0.0
1304220673907418012,0.0,0.0
1304220673947261095,0.0,0.0
1304220673987390995,0.0,0.0
1304220674027439117,0.0,0.0
1304220674067481040,0.0,0.0
1304220674108422994,0.0,0.0
1304220674147573947,0.0,0.0
1304220674187521934,0.0,0.0
1304220674227508068,0.0,0.0
1304220674267482042,0.0,0.0
1304220674307502031,0.0,0.0
1304220674347568035,0.0,0.0
1304220674387598991,0.0,0.0
1304220674427587032,0.0,0.0
1304220674467581033,0.0,0.0
1304220674507601976,0.0,0.0
1304220674551565885,0.0,0.0
1304220674591675043,0.0,0.0
1304220674631623029,0.0,0.0
1304220674671603918,0.0,0.0
1304220674711597919,0.0,0.0
1304220674751564979,0.0,0.0
1304220674791507005,0.0,0.0
1304220674827601909,0.0,0.0
1304220674867597103,0.0,0.0
1304220674907596111,0.0,0.0
1304220674947591066,0.0,0.0
1304220674991595983,0.0,0.0
1304220675027589082,0.0,0.0
1304220675067580938,0.0,0.0
1304220675107495069,0.0,0.0
1304220675147533893,0.0,0.0
1304220675187582015,0.0,0.0
1304220675227560997,0.0,0.0
1304220675267551898,0.0,0.0
1304220675307516098,0.0,0.0
1304220675347557067,0.0,0.0
1304220675387530088,0.0,0.0
1304220675427546024,0.0,0.0
1304220675467557907,0.0,0.0
1304220675507529973,0.0,0.0
1304220675547544956,0.0,0.0
1304220675587578058,0.0,0.0
1304220675627561092,0.0,0.0
1304220675667540073,0.0,0.0
1304220675707536935,0.0,0.0
1304220675747556924,0.0,0.0
1304220675787575006,0.0,0.0
1304220675827563047,0.0,0.0
1304220675867537021,0.0,0.0
1304220675907542943,0.0,0.0
1304220675947557926,0.0,0.0
1304220675987567901,0.0,0.0
1304220676027548074,0.0,0.0
1304220676067555904,0.0,0.0
1304220676107547998,0.0,0.0
1304220676147479057,0.0,0.0
1304220676187614917,0.0,0.0
1304220676227544069,0.0,0.0
1304220676267549991,0.0,0.0
1304220676307557106,0.0,0.0
1304220676347512960,0.0,0.0
1304220676387542963,0.0,0.0
1304220676427565097,0.0,0.0
1304220676467557907,0.0,0.0
1304220676507550001,0.0,0.0
1304220676547099113,0.0,0.0
1304220676587557077,0.0,0.0
1304220676627543926,0.0,0.0
1304220676667538881,0.0,0.0
1304220676707546949,0.0,0.0
1304220676748661994,0.0,0.0
1304220676787677049,0.0,0.0
1304220676831535100,0.0,0.0
1304220676871509075,0.0,0.0
1304220676911674022,0.0,0.0
1304220676947670936,0.0,0.0
1304220676987606048,0.0,0.0
1304220677027578115,0.0,0.0
1304220677067574977,0.0,0.0
1304220677107666969,0.0,0.0
1304220677147671937,0.0,0.0
1304220677187534093,0.0,0.0
1304220677227596998,0.0,0.0
1304220677267546892,0.0,0.0
1304220677307538032,0.0,0.0
1304220677347543954,0.0,0.0
1304220677387597084,0.0,0.0
1304220677427575111,0.0,0.0
1304220677467541933,0.0,0.0
1304220677507548093,0.0,0.0
1304220677547557115,0.0,0.0
1304220677587577104,0.0,0.0
1304220677627578973,0.0,0.0
1304220677667550086,0.0,0.0
1304220677707545042,0.0,0.0
1304220677747558116,0.0,0.0
1304220677787571907,0.0,0.0
1304220677827584981,0.0,0.0
1304220677867539882,0.0,0.0
1304220677907552957,0.0,0.0
1304220677947618961,0.0,0.0
1304220677987588882,0.0,0.0
1304220678027548074,0.0,0.0
1304220678067542076,0.0,0.0
1304220678107589960,0.0,0.0
1304220678143903970,0.0,0.0
1304220678183891057,0.0,0.0
1304220678227886915,0.0,0.0
1304220678268562078,0.0,0.0
1304220678308463096,0.0,0.0
1304220678347709894,0.0,0.0
1304220678387676954,0.0,0.0
1304220678423780918,0.0,0.0
1304220678471877098,0.0,0.0
1304220678507756948,0.0,0.0
1304220678548840999,0.0,0.0
1304220678583683967,0.0,0.0
1304220678628581047,0.0,0.0
1304220678668739080,0.0,0.0
1304220678707396984,0.0,0.0
1304220678747466087,0.0,0.0
1304220678784833908,0.0,0.0
1304220678828798055,0.0,0.0
1304220678864762067,0.0,0.0
1304220678904402017,0.0,0.0
1304220678944416046,0.0,0.0
1304220678984313964,0.0,0.0
1304220679024350881,0.0,0.0
1304220679064351081,0.0,0.0
1304220679108313083,0.0,0.0
1304220679148283004,0.0,0.0
1304220679184401988,0.0,0.0
1304220679228406906,0.0,0.0
1304220679268341064,0.0,0.0
1304220679308494091,0.0,0.0
1304220679344463109,0.0,0.0
1304220679384361982,0.0,0.0
1304220679428395986,0.0,0.0
1304220679464335918,0.0,0.0
1304220679508344888,0.0,0.0
1304220679568464040,0.0,0.0
1304220679596512079,0.0,0.0
1304220679624401092,0.0,0.0
1304220679664345026,0.0,0.0
1304220679708373069,0.0,0.0
1304220679748385906,0.0,0.0
1304220679788494110,0.0,0.0
1304220679828350067,0.0,0.0
1304220679868386030,0.0,0.0
1304220679904489994,0.0,0.0
1304220679948473930,0.0,0.0
1304220679988316059,0.0,0.0
1304220680028414011,0.0,0.0
1304220680068284988,0.0,0.0
1304220680104264020,0.0,0.0
1304220680147670030,0.0,0.0
1304220680187668085,0.0,0.0
1304220680227636098,0.0,0.0
1304220680267616033,0.0,0.0
1304220680307645082,0.0,0.0
1304220680347600936,0.0,0.0
1304220680387588977,0.0,0.0
1304220680427664041,0.0,0.0
1304220680467641115,0.0,0.0
1304220680507538080,0.0,0.0
1304220680567601919,0.0,0.0
1304220680595601081,0.0,0.0
1304220680627638101,0.0,0.0
1304220680667146921,0.0,0.0
1304220680715106010,0.0,0.130968973041
1304220680747370004,0.194854512811,0.389709025621
1304220680787369966,0.314085513353,0.314085513353
1304220680827248096,0.157134518027,0.314269036055
1304220680867213010,0.314496576786,0.314496576786
1304220680907299995,0.156818166375,0.31363633275
1304220680947376966,0.314222961664,0.314222961664
1304220680987385034,0.314165174961,0.471247762442
1304220681027374982,0.31416413188,0.471246212721
1304220681067246913,0.314362198114,0.314362198114
1304220681107296943,0.314328312874,0.471492469311
1304220681147380113,0.470659792423,0.313773185015
1304220681187372922,0.314188539982,0.471282809973
1304220681227380990,0.314085930586,0.314085930586
1304220681267380952,0.314164340496,0.471246540546
1304220681307221889,0.314648926258,0.314648926258
1304220681347599983,0.311726748943,0.467590153217
1304220681387554883,0.314776927233,0.314776927233
1304220681427597999,0.470765978098,0.313843995333
1304220681467684030,0.313536286354,0.313536286354
1304220681507565021,0.314438700676,0.314438700676
1304220681555030107,0.397603929043,0.265069276094
1304220681587960958,0.38184556365,0.38184556365
1304220681627142906,0.320689707994,0.320689707994
1304220681667926073,0.308210253716,0.462315410376
1304220681707859039,0.471973866224,0.314649224281
1304220681747890949,0.313922226429,0.470883369446
1304220681787897109,0.314101994038,0.314101994038
1304220681827497959,0.317286342382,0.475929528475
1304220681867887020,0.466797411442,0.311198294163
1304220681907902956,0.314103096724,0.471154630184
1304220681947896003,0.471192777157,0.314128518105
1304220681988003015,0.314162313938,0.47124350071
1304220682023962020,0.522108495235,0.522108495235
1304220682067847967,0.286334902048,0.286334902048
1304220682107800960,0.314586341381,0.471879512072
1304220682148691892,0.307466477156,0.461199700832
1304220682195964097,0.398732423782,0.398732423782
1304220682227901935,0.393502354622,0.393502354622
1304220682267879962,0.314360797405,0.471541196108
1304220682307873010,0.47128251195,0.314188331366
1304220682347884893,0.314036667347,0.471055030823
1304220682387892961,0.471243649721,0.314162433147
1304220682428622961,0.308500021696,0.308500021696
1304220682467941045,0.319704443216,0.479556679726
1304220682507344007,0.478165596724,0.318777054548
1304220682547382116,0.31390234828,0.470853507519
1304220682587271928,0.314742207527,0.314742207527
1304220682627391099,0.470210403204,0.313473582268
1304220682667418003,0.313955575228,0.470933377743
1304220682707313060,0.314747810364,0.314747810364
1304220682747414112,0.470433861017,0.313622564077
1304220682787856101,0.310625433922,0.465938150883
1304220682827754974,0.314746320248,0.314746320248
1304220682863773107,0.523658335209,0.349105536938
1304220682907769918,0.285584896803,0.285584896803
1304220682947819948,0.470625758171,0.313750505447
1304220682991643905,0.286200851202,0.286200851202
1304220683027769088,0.348873406649,0.348873406649
1304220683067671060,0.471238255501,0.471238255501
1304220683104554891,0.340239942074,0.340239942074
1304220683147520065,0.292802900076,0.439204335213
1304220683187586069,0.470614522696,0.470614522696
1304220683231606006,0.285854190588,0.285854190588
1304220683267607927,0.34904718399,0.523570775986
1304220683307527065,0.471762478352,0.471762478352
1304220683347521066,0.313839644194,0.313839644194
1304220683387535095,0.471392303705,0.314261525869
1304220683427644968,0.314339071512,0.314339071512
1304220683475100040,0.396842807531,0.396842807531
1304220683507652997,0.386746972799,0.386746972799
1304220683547559022,0.471746325493,0.471746325493
1304220683587533950,0.314241617918,0.314241617918
1304220683627542018,0.314062744379,0.314062744379
1304220683667556047,0.471266239882,0.471266239882
1304220683707506895,0.31420442462,0.31420442462
1304220683747541904,0.313799977303,0.470699995756
1304220683787504911,0.471810668707,0.314540445805
1304220683827531099,0.313787102699,0.470680624247
1304220683867516040,0.314442545176,0.471663832664
1304220683907552957,0.471357673407,0.471357673407
1304220683947587013,0.313899368048,0.313899368048
1304220683987498044,0.314337223768,0.471505850554
1304220684027538061,0.471349537373,0.314233005047
1304220684067462921,0.313968777657,0.470953166485
1304220684107472896,0.471724897623,0.471724897623
1304220684147666931,0.313584893942,0.313584893942
1304220684191592931,0.42907550931,0.42907550931
1304220684227530002,0.349145680666,0.349145680666
1304220684267477989,0.471327424049,0.471327424049
1304220684307499885,0.47127494216,0.47127494216
1304220684347543954,0.470953911543,0.313969284296
1304220684387500047,0.471479177475,0.314319461584
1304220684427496910,0.471242904663,0.314161926508
1304220684467566967,0.470897167921,0.313931435347
1304220684507524967,0.314158380032,0.314158380032
1304220684547527074,0.314336925745,0.471505373716
1304220684587552070,0.470971047878,0.313980698586
1304220684627549886,0.314215838909,0.314215838909
1304220684667500972,0.471167266369,0.471167266369
1304220684707144021,0.31710588932,0.475658833981
1304220684748526096,0.304318636656,0.304318636656
1304220684791336059,0.439937323332,0.439937323332
1304220684835441112,0.285107702017,0.427661538124
1304220684871433973,0.523609757423,0.349073201418
1304220684915426015,0.285748004913,0.42862200737
1304220684951467990,0.522707700729,0.348471790552
1304220684995393037,0.286043196917,0.429064810276
1304220685035414934,0.470830142498,0.470830142498
1304220685071420907,0.34949272871,0.34949272871
1304220685107425928,0.348733603954,0.523100376129
1304220685147443056,0.471219062805,0.31414604187
1304220685187398910,0.314124286175,0.471186429262
1304220685227467060,0.471358597279,0.471358597279
1304220685267365932,0.314349502325,0.314349502325
1304220685307410001,0.471318751574,0.471318751574
1304220685347368955,0.314218848944,0.314218848944
1304220685387413978,0.471083879471,0.471083879471
1304220685427397966,0.314249247313,0.471373856068
1304220685467369079,0.471213757992,0.314142495394
1304220685507395982,0.314209759235,0.471314638853
1304220685547382116,0.471059799194,0.314039885998
1304220685587455987,0.313824474812,0.313824474812
1304220685627522945,0.470459759235,0.313639849424
1304220685667387008,0.315225213766,0.315225213766
1304220685707510948,0.470024079084,0.31334939599
1304220685744607925,0.338013380766,0.338013380766
1304220685791419029,0.403132051229,0.268754690886
1304220685835419893,0.285602539778,0.285602539778
1304220685871418952,0.348801970482,0.348801970482
1304220685911384105,0.471619427204,0.314412951469
1304220685947531938,0.34781524539,0.34781524539
1304220685987417936,0.472502052784,0.315001368523
1304220686027472019,0.314222276211,0.471333414316
1304220686067416906,0.470713406801,0.313808947802
1304220686107326030,0.314681082964,0.472021609545
1304220686143610954,0.519427955151,0.346285313368
1304220686187580108,0.285953253508,0.285953253508
1304220686227602958,0.314460724592,0.314460724592
1304220686267608880,0.471273541451,0.314182370901
1304220686307559013,0.314191281796,0.314191281796
1304220686347559928,0.471211612225,0.471211612225
1304220686387511014,0.314074993134,0.314074993134
1304220686427529096,0.314275443554,0.471413165331
1304220686467005968,0.318156033754,0.47723403573
1304220686507555961,0.465287774801,0.465287774801
1304220686547525882,0.313846230507,0.313846230507
1304220686587521076,0.471803486347,0.471803486347
1304220686627562046,0.314120680094,0.471181035042
1304220686667237043,0.473709285259,0.315806180239
1304220686707506895,0.312523782253,0.46878567338
1304220686747555971,0.313835918903,0.313835918903
1304220686787556886,0.4717849195,0.4717849195
1304220686827542066,0.314168006182,0.314168006182
1304220686867635011,0.47039937973,0.313599586487
1304220686907521963,0.314726352692,0.314726352692
1304220686947602033,0.313731253147,0.313731253147
1304220686987509012,0.471799701452,0.314533144236
1304220687027589082,0.314191192389,0.471286803484
1304220687067591905,0.314173668623,0.471260517836
1304220687107537031,0.314218133688,0.314218133688
1304220687147572040,0.470748752356,0.470748752356
1304220687187536001,0.31441244483,0.471618682146
1304220687227602005,0.47049382329,0.313662528992
1304220687267604112,0.314212024212,0.314212024212
1304220687307557106,0.471687853336,0.314458578825
1304220687347657918,0.313352674246,0.47002902627
1304220687391505002,0.42903226614,0.286021500826
1304220687431669950,0.31360077858,0.31360077858
1304220687475594997,0.429109454155,0.286072969437
1304220687511604070,0.349037408829,0.349037408829
1304220687551557064,0.313766360283,0.313766360283
1304220687591597080,0.471842855215,0.471842855215
1304220687631604909,0.314121335745,0.314121335745
1304220687671605110,0.314167171717,0.471250772476
1304220687711589097,0.471367716789,0.314245134592
1304220687751600980,0.314036428928,0.314036428928
1304220687791594982,0.471364796162,0.314243197441
1304220687831600904,0.314121216536,0.314121216536
1304220687867558002,0.349685519934,0.349685519934
1304220687907597064,0.470524281263,0.313682854176
1304220687947606086,0.31402951479,0.31402951479
1304220687987603902,0.314248085022,0.471372127533
1304220688031599998,0.428428262472,0.428428262472
1304220688071594953,0.471260786057,0.314173847437
1304220688107592105,0.348827987909,0.348827987909
1304220688155581951,0.261822134256,0.392733216286
1304220688195599079,0.314295113087,0.471442699432
1304220688231664896,0.522748529911,0.348499029875
1304220688270263910,0.325482666492,0.488223999739
1304220688315576076,0.276811659336,0.276811659336
1304220688347667932,0.588945686817,0.392630457878
1304220688391606092,0.286040097475,0.286040097475
1304220688435626983,0.42820623517,0.285470813513
1304220688471859931,0.346977293491,0.346977293491
1304220688519646883,0.394329726696,0.262886464596
1304220688551707029,0.392314195633,0.588471293449
1304220688597383022,0.27467662096,0.27467662096
1304220688635672092,0.492744535208,0.492744535208
1304220688672269105,0.343464016914,0.343464016914
1304220688715668916,0.434267282486,0.289511531591
1304220688755743026,0.313553094864,0.470329612494
1304220688791625022,0.34999614954,0.34999614954
1304220688835702896,0.42812743783,0.42812743783
1304220688871532917,0.350260615349,0.350260615349
1304220688919570922,0.261351495981,0.261351495981
1304220688943593978,0.786208570004,0.524139046669
1304220688995583057,0.241447091103,0.241447091103
1304220689035674095,0.471102684736,0.314068466425
1304220689063949108,0.444940149784,0.444940149784
1304220689103754997,0.314770251513,0.47215539217
1304220689151870965,0.391998827457,0.391998827457
1304220689187865972,0.349360316992,0.349360316992
1304220689227859020,0.314160197973,0.471240282059
1304220689271816968,0.428638398647,0.428638398647
1304220689307912111,0.34876960516,0.34876960516
1304220689347773075,0.314205795527,0.314205795527
1304220689391788005,0.428727686405,0.428727686405
1304220689427870988,0.349022299051,0.349022299051
1304220689471817016,0.285550147295,0.285550147295
1304220689511898040,0.471410900354,0.314273923635
1304220689551868915,0.314157277346,0.314157277346
1304220689591912031,0.470765501261,0.313843667507
1304220689631870985,0.31441628933,0.31441628933
1304220689671447992,0.317534446716,0.476301670074
1304220689711863040,0.465916246176,0.310610830784
1304220689751842975,0.314446628094,0.471669942141
1304220689791906118,0.470840960741,0.313893973827
1304220689831876993,0.314381599426,0.314381599426
1304220689871880054,0.313842564821,0.470763862133
1304220689911869049,0.471804976463,0.31453666091
1304220689951921939,0.313992261887,0.47098839283
1304220689991888046,0.470819920301,0.313879936934
1304220690031857013,0.31463932991,0.471959024668
1304220690071918964,0.314053505659,0.314053505659
1304220690108305931,0.516765654087,0.516765654087
1304220690152144908,0.430312246084,0.430312246084
1304220690184572935,0.387603998184,0.387603998184
1304220690231442928,0.268299311399,0.402448982
1304220690267844915,0.516612350941,0.344408214092
1304220690307827949,0.314427554607,0.471641331911
1304220690347868919,0.314106196165,0.471159279346
1304220690387837886,0.470545589924,0.470545589924
1304220690427812099,0.314423054457,0.314423054457
1304220690467920064,0.470701098442,0.470701098442
1304220690507778882,0.3145378232,0.3145378232
1304220690547463893,0.476801812649,0.476801812649
1304220690583841085,0.343815952539,0.343815952539
1304220690623822927,0.314751714468,0.472127556801
1304220690667865991,0.428057402372,0.428057402372
1304220690712454080,0.282646328211,0.423969507217
1304220690748358011,0.524946987629,0.349964678288
1304220690794524908,0.271431297064,0.271431297064
1304220690835999011,0.303326308727,0.454989463091
1304220690871861934,0.52560454607,0.350403010845
1304220690908724069,0.339682459831,0.339682459831
1304220690951776981,0.438623577356,0.292415708303
1304220690991858005,0.313663691282,0.313663691282
1304220691031903028,0.472201406956,0.314800947905
1304220691067909955,0.348227143288,0.348227143288
1304220691111604928,0.28753811121,0.28753811121
1304220691152173995,0.465513378382,0.465513378382
1304220691188621997,0.344309002161,0.344309002161
1304220691231831073,0.290574222803,0.435861349106
1304220691267848014,0.348765581846,0.348765581846
1304220691311813116,0.429038077593,0.429038077593
1304220691351792097,0.471278518438,0.471278518438
1304220691391813039,0.313473403454,0.470210075378
1304220691427920103,0.349217295647,0.349217295647
1304220691467866897,0.314388900995,0.314388900995
1304220691504589080,0.511671543121,0.341114342213
1304220691551764011,0.400095969439,0.266730666161
1304220691587790012,0.348636597395,0.348636597395
1304220691627757072,0.314053326845,0.314053326845
1304220691667886972,0.314236342907,0.47135451436
1304220691707781076,0.471169412136,0.314112961292
1304220691746850967,0.321180224419,0.321180224419
1304220691790999889,0.284659683704,0.284659683704
1304220691835033893,0.428391903639,0.428391903639
1304220691875190973,0.470840394497,0.313893586397
1304220691912122011,0.340197861195,0.51029676199
1304220691948034048,0.523204863071,0.348803251982
1304220691988049983,0.314216405153,0.471324622631
1304220692028131961,0.314159363508,0.471239030361
1304220692068053007,0.471628904343,0.471628904343
1304220692107279062,0.319780945778,0.319780945778
1304220692147232055,0.47141495347,0.47141495347
1304220692187290906,0.314221560955,0.471332341433
1304220692231240034,0.428396463394,0.285597652197
1304220692275396108,0.285425961018,0.428138911724
1304220692307307958,0.392802506685,0.589203774929
1304220692347273111,0.471655100584,0.314436733723
1304220692387336969,0.313722789288,0.313722789288
1304220692427301883,0.471524596214,0.314349740744
1304220692467334985,0.314000993967,0.314000993967
1304220692507282972,0.314475744963,0.314475744963
1304220692571418046,0.392397969961,0.29429847002
1304220692599339008,0.449743896723,0.449743896723
1304220692627338886,0.224051326513,0.224051326513
1304220692667273044,0.471819639206,0.471819639206
1304220692707271099,0.314123153687,0.471184700727
1304220692747260093,0.470763206482,0.313842147589
1304220692795290946,0.261705458164,0.392558217049
1304220692835319042,0.472062140703,0.314708083868
1304220692871467113,0.348295450211,0.348295450211
1304220692911305904,0.314192026854,0.314192026854
1304220692947351932,0.52353644371,0.349024295807
1304220692991333007,0.285579711199,0.285579711199
1304220693027270078,0.524222016335,0.349481344223
1304220693067296028,0.313895225525,0.313895225525
1304220693111346960,0.428117513657,0.428117513657
1304220693155312061,0.285753399134,0.285753399134
1304220693187406063,0.393175780773,0.589763700962
1304220693227262020,0.470992147923,0.313994765282
1304220693267280101,0.314356446266,0.471534699202
1304220693307346105,0.471639573574,0.471639573574
1304220693347357034,0.314028352499,0.47104254365
1304220693387337923,0.471477299929,0.314318209887
1304220693427580118,0.31205752492,0.46808630228
1304220693467535018,0.471292316914,0.314194887877
1304220693507539987,0.470678448677,0.470678448677
1304220693547472000,0.472249060869,0.472249060869
1304220693587554931,0.470366030931,0.313577353954
1304220693627515077,0.314525872469,0.471788793802
1304220693667465925,0.314427435398,0.314427435398
1304220693707593917,0.469875246286,0.313250154257
1304220693747503995,0.31482848525,0.472242712975
1304220693787499904,0.471323728561,0.314215809107
1304220693827507972,0.314082682133,0.471123993397
1304220693867511034,0.31418672204,0.31418672204
1304220693907551050,0.470809876919,0.313873261213
1304220693947510004,0.31437432766,0.31437432766
1304220693987566947,0.31396740675,0.31396740675
1304220694027522087,0.314413398504,0.471620082855
1304220694067542076,0.471160829067,0.314107239246
1304220694107578992,0.314255863428,0.471383780241
1304220694147614002,0.471090048552,0.314060032368
1304220694187616109,0.314119398594,0.471179068089
1304220694227610111,0.471372067928,0.471372067928
1304220694271569013,0.285550445318,0.285550445318
1304220694307602882,0.349069058895,0.523603618145
1304220694347512960,0.471260756254,0.471260756254
1304220694387532949,0.313860744238,0.313860744238
1304220694427620887,0.471426844597,0.471426844597
1304220694467539072,0.314300566912,0.471450865269
1304220694507499933,0.471228092909,0.314152061939
1304220694547612905,0.314087718725,0.471131592989
1304220694587547063,0.314004421234,0.471006631851
1304220694627561092,0.314186275005,0.471279382706
1304220694667606115,0.471565932035,0.31437727809
1304220694707508087,0.3141682446,0.471252381802
1304220694747545003,0.470868051052,0.313912034035
1304220694787625074,0.31431466341,0.31431466341
1304220694827502012,0.471397519112,0.314265012741
1304220694867526054,0.314158678055,0.471238017082
1304220694907607078,0.31410241127,0.31410241127
1304220694947607040,0.471273779869,0.314182519913
1304220694987524032,0.31390658021,0.470859855413
1304220695027631044,0.471398115158,0.314265429974
1304220695067529916,0.314185380936,0.314185380936
1304220695107491016,0.471662580967,0.314441710711
1304220695147628068,0.313947021961,0.313947021961
1304220695187596082,0.313708752394,0.313708752394
1304220695235548973,0.262099981308,0.262099981308
1304220695271687030,0.522698462009,0.348465651274
1304220695315612077,0.429062277079,0.429062277079
1304220695347618103,0.39225640893,0.39225640893
1304220695387558937,0.314500033855,0.471750050783
1304220695427572965,0.470365583897,0.470365583897
1304220695475611925,0.261894106865,0.392841130495
1304220695505376100,0.422875016928,0.422875016928
1304220695551599025,0.407548189163,0.271698772907
1304220695587552070,0.349754452705,0.349754452705
1304220695635607957,0.392003417015,0.392003417015
1304220695675154924,0.318034023046,0.477051019669
1304220695711088895,0.34963157773,0.34963157773
1304220695751151084,0.470613360405,0.470613360405
1304220695791038036,0.3147136271,0.472070425749
1304220695831017971,0.314027637243,0.314027637243
1304220695871085882,0.47122913599,0.314152747393
1304220695911041021,0.314111024141,0.471166551113
1304220695943028926,0.587927401066,0.391951590776
1304220695987015962,0.285702586174,0.428553879261
1304220696032653093,0.275478184223,0.275478184223
1304220696067107915,0.548567593098,0.3657117486
1304220696106990098,0.314189255238,0.471283882856
1304220696151601076,0.424349635839,0.424349635839
1304220696187613010,0.523089528084,0.174363166094
1304220696227597951,0.314418017864,0.471627056599
1304220696267563104,0.471263051033,0.471263051033
1304220696307555913,0.31391069293,0.31391069293
1304220696347606897,0.314137965441,0.314137965441
1304220696387510061,0.314460039139,0.314460039139
1304220696427527904,0.471131056547,0.3140873909
1304220696467565059,0.314168423414,0.314168423414
1304220696507550001,0.470953017473,0.470953017473
1304220696547548055,0.314424782991,0.314424782991
1304220696587584972,0.470797091722,0.313864737749
1304220696627526998,0.314215779305,0.314215779305
1304220696667526006,0.314141482115,0.314141482115
1304220696707515954,0.47118216753,0.314121454954
1304220696747514963,0.314181923866,0.314181923866
1304220696787528038,0.471269249916,0.314179480076
1304220696827550888,0.314098536968,0.471147805452
1304220696867522001,0.471198022366,0.471198022366
1304220696907530069,0.314238190651,0.314238190651
1304220696947561025,0.314130574465,0.314130574465
1304220696987556934,0.471285998821,0.314190655947
1304220697027550935,0.314173907042,0.471260875463
1304220697067507028,0.471128344536,0.471128344536
1304220697107502937,0.314170926809,0.314170926809
1304220697147511959,0.314208090305,0.314208090305
1304220697187582015,0.470839470625,0.313892990351
1304220697227576971,0.314355909824,0.314355909824
1304220697267519950,0.314224362373,0.314224362373
1304220697307090997,0.476191282272,0.317460864782
1304220697347445011,0.312396764755,0.312396764755
1304220697387439966,0.47121733427,0.47121733427
1304220697427409887,0.314140707254,0.314140707254
1304220697467367887,0.47163823247,0.47163823247
1304220697507374048,0.314016610384,0.314016610384
1304220697543541908,0.346773147583,0.520159721375
1304220697587660074,0.427942574024,0.427942574024
1304220697627542972,0.314525723457,0.471788585186
1304220697667706966,0.470413118601,0.3136087358
1304220697707653045,0.314571380615,0.314571380615
1304220697747628927,0.470820784569,0.313880503178
1304220697783665895,0.34912493825,0.523687422276
1304220697827558994,0.285847902298,0.428771883249
1304220697867567062,0.470532089472,0.470532089472
1304220697907582998,0.314631849527,0.314631849527
1304220697947618007,0.471056848764,0.471056848764
1304220697987615108,0.314067333937,0.471101015806
1304220698027620077,0.471731007099,0.471731007099
1304220698067528009,0.314135849476,0.314135849476
1304220698107496976,0.314564615488,0.471846938133
1304220698147610902,0.470537900925,0.470537900925
1304220698183630943,0.34878924489,0.34878924489
1304220698227602958,0.285835385323,0.428753077984
1304220698271537065,0.428476035595,0.428476035595
1304220698311608076,0.471795350313,0.471795350313
1304220698351164102,0.317444264889,0.476166397333
1304220698395140886,0.285580545664,0.428370803595
1304220698431113958,0.52362626791,0.349084198475
1304220698471087932,0.314114153385,0.471171230078
1304220698507194995,0.522777140141,0.522777140141
1304220698555079936,0.262125134468,0.262125134468
1304220698587539911,0.581435859203,0.581435859203
1304220698627542972,0.314429849386,0.314429849386
1304220698667562007,0.314218223095,0.471327364445
1304220698707479000,0.471211463213,0.314140975475
1304220698747541904,0.314136147499,0.314136147499
1304220698787442922,0.315247833729,0.315247833729
1304220698827370882,0.471675097942,0.314450055361
1304220698867420911,0.313732653856,0.313732653856
1304220698907398939,0.47185125947,0.314567506313
1304220698951479911,0.285084426403,0.427626639605
1304220698987396001,0.349734455347,0.349734455347
1304220699027395963,0.471333682537,0.314222455025
1304220699067420005,0.314161270857,0.314161270857
1304220699108525991,0.457942962646,0.305295288563
1304220699147411108,0.323530584574,0.323530584574
1304220699187417984,0.47118639946,0.314124256372
1304220699227391004,0.314104050398,0.314104050398
1304220699267447948,0.31393507123,0.31393507123
1304220699307418107,0.471704304218,0.314469516277
1304220699347383975,0.314109653234,0.471164494753
1304220699387407064,0.471322000027,0.314214676619
1304220699427366971,0.314311772585,0.471467643976
1304220699467387914,0.313947319984,0.313947319984
1304220699507411956,0.471347540617,0.471347540617
1304220699547369956,0.314196676016,0.314196676016
1304220699587456941,0.314209938049,0.471314907074
1304220699627435922,0.47105050087,0.47105050087
1304220699667422056,0.471166789532,0.471166789532
1304220699707427024,0.314128339291,0.314128339291
1304220699747407913,0.314341038465,0.471511542797
1304220699787388086,0.471171587706,0.314114391804
1304220699827433109,0.314143359661,0.471215039492
1304220699867434978,0.313879698515,0.313879698515
1304220699907423973,0.471576839685,0.471576839685
1304220699947413921,0.314158678055,0.314158678055
1304220699987418889,0.471314489841,0.471314489841
1304220700027381896,0.314158767462,0.471238166094
1304220700067441940,0.471179813147,0.314119875431
1304220700107235908,0.31469643116,0.31469643116
1304220700147401094,0.313676685095,0.313676685095
1304220700187417984,0.471128344536,0.471128344536
1304220700227418899,0.313909947872,0.313909947872
1304220700267374038,0.471769839525,0.314513236284
1304220700307420015,0.314096570015,0.314096570015
1304220700347412109,0.314218968153,0.471328467131
1304220700387387990,0.471200495958,0.314133673906
1304220700427361011,0.314353853464,0.471530765295
1304220700467415094,0.313956648111,0.313956648111
1304220700507426977,0.471135050058,0.314090043306
1304220700551373958,0.428433060646,0.428433060646
1304220700587407112,0.349134892225,0.523702323437
1304220700627362012,0.314392894506,0.314392894506
1304220700667360067,0.47075560689,0.47075560689
1304220700707380056,0.314212411642,0.314212411642
1304220700747409105,0.314183473587,0.471275210381
1304220700787482976,0.471178352833,0.471178352833
1304220700827409029,0.31426346302,0.31426346302
1304220700867417097,0.471064209938,0.471064209938
1304220700907426118,0.314070701599,0.471106052399
1304220700947407960,0.471468061209,0.314312040806
1304220700987468957,0.314175993204,0.471263974905
1304220701027375936,0.314410060644,0.471615076065
1304220701067399024,0.470392972231,0.313595324755
1304220701107353925,0.314413428307,0.47162014246
1304220701147346973,0.471446305513,0.471446305513
1304220701187417984,0.314002305269,0.314002305269
1304220701227407932,0.314203590155,0.471305400133
1304220701267477035,0.471102565527,0.314068377018
1304220701307498931,0.314011633396,0.471017450094
1304220701347373962,0.471645146608,0.314430087805
1304220701387411117,0.314101547003,0.314101547003
1304220701427407026,0.47133359313,0.31422239542
1304220701467346906,0.314396858215,0.314396858215
1304220701507370948,0.470720171928,0.313813447952
1304220701547400951,0.314272671938,0.314272671938
1304220701587377071,0.31413474679,0.31413474679
1304220701631458044,0.427916735411,0.285277813673
1304220701671375989,0.314416617155,0.314416617155
1304220701707381963,0.523764669895,0.349176436663
1304220701747268915,0.314387768507,0.314387768507
1304220701787389993,0.470882415771,0.31392160058
1304220701827436923,0.313966929913,0.313966929913
1304220701867357015,0.314658820629,0.314658820629
1304220701907432079,0.470272451639,0.313514977694
1304220701947390079,0.471832334995,0.471832334995
1304220701991429090,0.28536465764,0.28536465764
1304220702027434110,0.523684322834,0.523684322834
1304220702067470073,0.313879221678,0.313879221678
1304220702107328891,0.471723884344,0.471723884344
1304220702147409915,0.31407931447,0.31407931447
1304220702187414884,0.314138501883,0.471207767725
1304220702227437973,0.471139788628,0.471139788628
1304220702267364025,0.471814513206,0.314543008804
1304220702307502985,0.313584476709,0.313584476709
1304220702347320079,0.31467372179,0.472010552883
1304220702387435913,0.470967203379,0.313978135586
1304220702427356958,0.314334303141,0.47150143981
1304220702467449903,0.470835983753,0.31389066577
1304220702507432937,0.313810706139,0.470716059208
1304220702547384023,0.471746772528,0.314497858286
1304220702595411062,0.261674642563,0.261674642563
1304220702627451896,0.588172197342,0.392114788294
1304220702667404890,0.314507603645,0.314507603645
1304220702707412958,0.471149891615,0.314099937677
1304220702747375965,0.314448684454,0.471673041582
1304220702787421941,0.313883036375,0.470824539661
1304220702827248096,0.471968114376,0.314645409584
1304220702867379903,0.313927024603,0.313927024603
1304220702915450096,0.261626213789,0.392439305782
1304220702959434032,0.28563696146,0.42845544219
1304220702999419927,0.314095497131,0.314095497131
1304220703031430006,0.39272069931,0.39272069931
1304220703079423904,0.392674446106,0.392674446106
1304220703107418060,0.448885679245,0.448885679245
1304220703155428886,0.392679989338,0.26178663969
1304220703199429035,0.428276449442,0.285517632961
1304220703231376886,0.393373459578,0.393373459578
1304220703267442941,0.348423182964,0.348423182964
1304220703319389104,0.362838596106,0.362838596106
1304220703347410917,0.448473274708,0.448473274708
1304220703391463041,0.285262852907,0.42789426446
1304220703431382894,0.472226709127,0.314817816019
1304220703475440025,0.285208404064,0.427812606096
1304220703515430927,0.314347296953,0.314347296953
1304220703547538042,0.195651516318,0.195651516318
1304220703587497949,0.313733935356,0.313733935356
1304220703627594947,0.31379249692,0.470688730478
1304220703667542934,0.314111739397,0.314111739397
1304220703707596063,0.471753537655,0.314502358437
1304220703747591972,0.31422150135,0.31422150135
1304220703787605047,0.471068799496,0.314045876265
1304220703827596902,0.314194321632,0.314194321632
1304220703867602109,0.471194475889,0.314129650593
1304220703907552957,0.313844054937,0.313844054937
1304220703947566986,0.471744924784,0.314496636391
1304220703987574100,0.314104497433,0.314104497433
1304220704027642965,0.470818042755,0.470818042755
1304220704067507982,0.314720541239,0.314720541239
1304220704107489109,0.471114009619,0.471114009619
1304220704147490978,0.313953459263,0.313953459263
1304220704191487073,0.285759270191,0.428638905287
1304220704235529899,0.428342700005,0.428342700005
1304220704271600961,0.523413777351,0.348942548037
1304220704307502985,0.349213719368,0.523820579052
1304220704347517013,0.471356272697,0.314237505198
1304220704387526988,0.313986837864,0.470980226994
1304220704427491903,0.31427565217,0.31427565217
1304220704467509984,0.471074849367,0.314049899578
1304220704507519960,0.314260959625,0.314260959625
1304220704547621965,0.313864588737,0.313864588737
1304220704603598117,0.336758226156,0.449010998011
1304220704631648063,0.224652692676,0.224652692676
1304220704667479991,0.348993837833,0.523490786552
1304220704707550048,0.313792258501,0.313792258501
1304220704747560977,0.314213097095,0.471319645643
1304220704787534952,0.314258486032,0.471387714148
1304220704827506065,0.314175605774,0.314175605774
1304220704867438077,0.471680790186,0.314453840256
1304220704907541036,0.313596427441,0.470394641161
1304220704947504997,0.47168597579,0.314457327127
1304220704987571001,0.314390689135,0.314390689135
1304220705027601003,0.470793694258,0.313862472773
1304220705067563056,0.31443810463,0.31443810463
1304220705108568906,0.459757238626,0.459757238626
1304220705147584915,0.322126209736,0.322126209736
1304220705187602043,0.313958972692,0.47093847394
1304220705227691888,0.470177322626,0.470177322626
1304220705271634101,0.428966701031,0.428966701031
1304220705307662963,0.349125117064,0.349125117064
1304220705347543001,0.314552634954,0.471828937531
1304220705387516021,0.470930606127,0.313953757286
1304220705427603006,0.314214020967,0.47132101655
1304220705467572927,0.471497774124,0.471497774124
1304220705507544040,0.313703030348,0.470554530621
1304220705547503948,0.471716940403,0.314477950335
1304220705587506055,0.314110666513,0.471166014671
1304220705627602100,0.471241086721,0.314160734415
1304220705667567968,0.314426839352,0.471640229225
1304220705707602024,0.313883990049,0.470825970173
1304220705747503995,0.471306800842,0.314204543829
1304220705787487030,0.31430721283,0.471460789442
1304220705827606916,0.470497339964,0.313664883375
1304220705867594957,0.314512550831,0.314512550831
1304220705907562017,0.471621870995,0.471621870995
1304220705947599887,0.313843786716,0.313843786716
1304220705987478017,0.471640765667,0.471640765667
1304220706027580976,0.314067840576,0.314067840576
1304220706067605972,0.470958888531,0.470958888531
1304220706107539892,0.314416438341,0.471624672413
1304220706147398948,0.473388701677,0.315592467785
1304220706187350034,0.314605206251,0.471907824278
1304220706227543115,0.467745542526,0.311830341816
1304220706267543077,0.314144343138,0.471216529608
1304220706307579994,0.471084028482,0.471084028482
1304220706347433090,0.314829826355,0.314829826355
1304220706387505054,0.470666050911,0.470666050911
1304220706427524089,0.314128786325,0.471193164587
1304220706467504024,0.471276462078,0.471276462078
1304220706507498979,0.314199358225,0.314199358225
1304220706547519922,0.47121733427,0.47121733427
1304220706587543964,0.313939154148,0.470908731222
1304220706627517938,0.471569538116,0.314379692078
1304220706667476892,0.314372807741,0.471559196711
1304220706707501888,0.471075564623,0.471075564623
1304220706747512102,0.314086019993,0.314086019993
1304220706787555932,0.470418870449,0.470418870449
1304220706827532052,0.314449369907,0.314449369907
1304220706867672920,0.470816493034,0.470816493034
1304220706907635927,0.314474105835,0.314474105835
1304220706947596073,0.471703618765,0.314469069242
1304220706987620115,0.313914328814,0.470871508121
1304220707027679920,0.313724726439,0.313724726439
1304220707067554950,0.471387714148,0.471387714148
1304220707107597112,0.314690589905,0.472035884857
1304220707147631883,0.470778495073,0.313852339983
1304220707187633991,0.314205944538,0.471308887005
1304220707227632045,0.471272498369,0.471272498369
1304220707267637968,0.313828229904,0.313828229904
1304220707307576894,0.472060978413,0.472060978413
1304220707355667114,0.261440694332,0.392161071301
1304220707391660928,0.349139362574,0.349139362574
1304220707431704998,0.471053689718,0.314035773277
1304220707467691898,0.349150508642,0.523725748062
1304220707507570981,0.471556782722,0.314371168613
1304220707547533035,0.314127892256,0.314127892256
1304220707587599992,0.314204156399,0.471306234598
1304220707627636909,0.471241831779,0.314161241055
1304220707667670965,0.313962340355,0.470943510532
1304220707707532882,0.314635455608,0.314635455608
1304220707747594118,0.470684856176,0.470684856176
1304220707787556886,0.314008533955,0.314008533955
1304220707827522993,0.314589977264,0.314589977264
1304220707867614984,0.470494449139,0.470494449139
1304220707907538890,0.314521580935,0.314521580935
1304220707947537899,0.314076602459,0.314076602459
1304220707991549968,0.428372174501,0.428372174501
1304220708027523994,0.349127590656,0.523691415787
1304220708067589998,0.47088778019,0.313925176859
1304220708108572959,0.306884407997,0.306884407997
1304220708147613048,0.482953339815,0.321968883276
1304220708187644004,0.314257383347,0.314257383347
1304220708227627992,0.313910067081,0.470865100622
1304220708267638921,0.471207380295,0.314138263464
1304220708307565927,0.314436614513,0.314436614513
1304220708347723960,0.313823252916,0.470734864473
1304220708387607097,0.471362292767,0.314241528511
1304220708427578926,0.31434905529,0.31434905529
1304220708467570066,0.47082144022,0.47082144022
1304220708507560968,0.314495533705,0.314495533705
1304220708547527074,0.314108490944,0.471162736416
1304220708587604999,0.313866406679,0.313866406679
1304220708627604007,0.471277147532,0.471277147532
1304220708667568922,0.314711987972,0.314711987972
1304220708707576036,0.471198409796,0.314132273197
1304220708747503995,0.314166158438,0.471249252558
1304220708787535905,0.313971042633,0.313971042633
1304220708827528953,0.471479922533,0.314319968224
1304220708867546081,0.31396189332,0.470942854881
1304220708907521009,0.314478009939,0.314478009939
1304220708947541952,0.471001386642,0.314000934362
1304220708987550973,0.314115107059,0.314115107059
1304220709027506113,0.471511900425,0.314341276884
1304220709067539930,0.313827246428,0.470740884542
1304220709107605934,0.314424008131,0.314424008131
1304220709147607088,0.314147442579,0.47122117877
1304220709187509059,0.471175760031,0.471175760031
1304220709227509021,0.314297169447,0.471445739269
1304220709267498016,0.471133708954,0.314089149237
1304220709307524919,0.314096450806,0.471144676208
1304220709347579956,0.314293861389,0.471440792084
1304220709387506961,0.471259742975,0.314173161983
1304220709427524089,0.314181447029,0.471272170544
1304220709467540025,0.313718467951,0.470577716827
1304220709507492065,0.471924751997,0.471924751997
1304220709547554016,0.313701450825,0.313701450825
1304220709587523937,0.31425884366,0.471388250589
1304220709627518892,0.471529215574,0.471529215574
1304220709667613983,0.313914835453,0.313914835453
1304220709707529067,0.314547508955,0.314547508955
1304220709747535943,0.470873147249,0.470873147249
1304220709787553071,0.314165055752,0.471247583628
1304220709827578067,0.314495056868,0.157247528434
1304220709867491006,0.471224337816,0.471224337816
1304220709907490015,0.314129799604,0.314129799604
1304220709947519063,0.314146727324,0.471220105886
1304220709987519025,0.471233069897,0.471233069897
1304220710027549028,0.313816398382,0.470724582672
1304220710067579030,0.313803076744,0.313803076744
1304220710107491970,0.472320884466,0.31488057971
1304220710147495985,0.470875382423,0.470875382423
1304220710187519073,0.314210385084,0.314210385084
1304220710227530956,0.314175784588,0.314175784588
1304220710267498016,0.471233218908,0.471233218908
1304220710307503938,0.31424665451,0.471370011568
1304220710347639083,0.314231485128,0.314231485128
1304220710387440919,0.47362062335,0.315747082233
1304220710427412986,0.314403325319,0.471604973078
1304220710467412948,0.471226662397,0.314151108265
1304220710507420063,0.314124941826,0.471187412739
1304220710547399044,0.314135402441,0.47120308876
1304220710587419986,0.313928455114,0.313928455114
1304220710627372026,0.471496134996,0.471496134996
1304220710667452096,0.470112711191,0.313408464193
1304220710707514047,0.314310759306,0.314310759306
1304220710751359939,0.429165869951,0.286110579967
1304220710787388086,0.348871558905,0.348871558905
1304220710831516027,0.42633998394,0.28422665596
1304220710871609926,0.314101308584,0.314101308584
1304220710911601066,0.47135284543,0.47135284543
1304220710951611042,0.314138174057,0.314138174057
1304220710991597890,0.314147144556,0.314147144556
1304220711031565904,0.471665501595,0.314443677664
1304220711067567110,0.348715126514,0.523072719574
1304220711112534999,0.419535160065,0.279690116644
1304220711159672021,0.266779959202,0.400169938803
1304220711195713996,0.348654329777,0.348654329777
1304220711235635995,0.314742267132,0.314742267132
1304220711267611026,0.589092493057,0.392728328705
1304220711307562112,0.314113050699,0.314113050699
1304220711347664117,0.471119940281,0.314079940319
1304220711387465953,0.315568804741,0.315568804741
1304220711427593946,0.312593191862,0.312593191862
1304220711467606067,0.471627533436,0.314418375492
1304220711507559061,0.314181685448,0.314181685448
1304220711547626972,0.313894569874,0.313894569874
1304220711587660074,0.471179455519,0.314119637012
1304220711627532958,0.314442425966,0.471663653851
1304220711667567968,0.471231639385,0.314154446125
1304220711707650899,0.314113855362,0.471170783043
1304220711747554063,0.31421738863,0.471326112747
1304220711787559986,0.471147954464,0.471147954464
1304220711827697038,0.313736528158,0.313736528158
1304220711867644071,0.314679950476,0.314679950476
1304220711907550096,0.471619009972,0.314412683249
1304220711947638034,0.313821822405,0.313821822405
1304220711987314939,0.475374221802,0.316916137934
1304220712027542114,0.311484128237,0.467226177454
1304220712067605018,0.314143687487,0.314143687487
1304220712107482910,0.471888393164,0.471888393164
1304220712147284030,0.31714490056,0.31714490056
1304220712187699079,0.464720189571,0.464720189571
1304220712227817058,0.469450354576,0.312966912985
1304220712267611026,0.315921664238,0.473882466555
1304220712307960033,0.312079250813,0.468118906021
1304220712347908973,0.472033441067,0.472033441067
1304220712387913942,0.31356343627,0.31356343627
1304220712427930116,0.314555078745,0.471832603216
1304220712467849016,0.471285969019,0.314190655947
1304220712507930040,0.470852941275,0.470852941275
1304220712547729015,0.315942376852,0.315942376852
1304220712587894916,0.312601387501,0.468902111053
1304220712627892971,0.471700102091,0.314466744661
1304220712667927026,0.313855946064,0.313855946064
1304220712707895994,0.314449489117,0.314449489117
1304220712747843980,0.470520853996,0.313680559397
1304220712787915945,0.314042747021,0.314042747021
1304220712827250957,0.479662895203,0.479662895203
1304220712867849111,0.3088324368,0.463248640299
1304220712907934904,0.471502125263,0.471502125263
1304220712947928905,0.314241915941,0.314241915941
1304220712987807989,0.471229195595,0.471229195595
1304220713027443885,0.31803715229,0.477055698633
1304220713067886114,0.46562358737,0.310415714979
1304220713107768058,0.314171373844,0.471257060766
1304220713147938966,0.313785046339,0.313785046339
1304220713187774896,0.47210302949,0.314735352993
1304220713227643966,0.315213531256,0.472820311785
1304220713267904996,0.312818288803,0.469227433205
1304220713307823896,0.471309393644,0.314206272364
1304220713347784042,0.314138382673,0.314138382673
1304220713387608051,0.474987566471,0.474987566471
1304220713427822113,0.311434686184,0.311434686184
1304220713467809915,0.471635967493,0.314423978329
1304220713507972955,0.313837945461,0.313837945461
1304220713547806024,0.314484864473,0.314484864473
1304220713588010072,0.47003275156,0.47003275156
1304220713627574920,0.317710667849,0.317710667849
1304220713667841911,0.466881632805,0.466881632805
1304220713707411050,0.317924082279,0.317924082279
1304220713744008064,0.344532549381,0.344532549381
1304220713787853956,0.285816818476,0.285816818476
1304220713827807903,0.471204668283,0.314136445522
1304220713863683938,0.351429224014,0.351429224014
1304220713903902053,0.311953425407,0.467930138111
1304220713947783946,0.428785979748,0.285857319832
1304220713983674049,0.351490229368,0.351490229368
1304220714027537107,0.428399831057,0.285599887371
1304220714067650079,0.313927382231,0.313927382231
1304220714107610940,0.314566671848,0.471850007772
1304220714147607088,0.470994412899,0.313996255398
1304220714187562942,0.314210653305,0.314210653305
1304220714229751110,0.447657346725,0.447657346725
1304220714279680967,0.25181260705,0.377718895674
1304220714311666011,0.589129149914,0.392752766609
1304220714347698926,0.348718971014,0.52307844162
1304220714387573003,0.314211517572,0.471317261457
1304220714427501916,0.314722210169,0.314722210169
1304220714463917970,0.51943063736,0.51943063736
1304220714503833055,0.31397792697,0.470966905355
1304220714543826103,0.471562772989,0.314375191927
1304220714583442926,0.317101120949,0.475651711226
1304220714623275995,0.315968573093,0.47395285964
1304220714663855075,0.464144945145,0.464144945145
1304220714703805923,0.314416229725,0.314416229725
1304220714743257045,0.319040030241,0.47856003046
1304220714783175945,0.472698956728,0.472698956728
1304220714823694944,0.30931392312,0.30931392312
1304220714863816022,0.469147890806,0.469147890806
1304220714907494068,0.288221687078,0.288221687078
1304220714943470954,0.349747210741,0.349747210741
1304220714983622074,0.312907159328,0.312907159328
1304220715023852109,0.468534141779,0.312356114388
1304220715063292980,0.319251894951,0.319251894951
1304220715107785940,0.422108769417,0.422108769417
1304220715147888898,0.314288079739,0.471432119608
1304220715187944889,0.313812851906,0.313812851906
1304220715227869033,0.471728414297,0.314485609531
1304220715267831087,0.314105451107,0.314105451107
1304220715311824083,0.28543227911,0.428148418665
1304220715351955890,0.471251726151,0.471251726151
1304220715387931108,0.34910851717,0.34910851717
1304220715427917003,0.313954263926,0.470931380987
1304220715467861890,0.471431016922,0.471431016922
1304220715507720947,0.315161198378,0.315161198378
1304220715547964096,0.313143223524,0.469714850187
1304220715587843894,0.471302181482,0.471302181482
1304220715627820014,0.314147949219,0.471221923828
1304220715667954921,0.313822597265,0.313822597265
1304220715707851886,0.471720188856,0.314480125904
1304220715747929096,0.313971459866,0.470957159996
1304220715787882089,0.471838951111,0.314559310675
1304220715827845096,0.313986867666,0.313986867666
1304220715867856025,0.314141690731,0.471212565899
1304220715907929897,0.471141815186,0.314094543457
1304220715947845935,0.314219862223,0.471329808235
1304220715987812042,0.314453423023,0.314453423023
1304220716027926921,0.470757126808,0.470757126808
1304220716067801952,0.31447789073,0.471716821194
1304220716107757091,0.471483558416,0.471483558416
1304220716147939920,0.313688129187,0.313688129187
1304220716187763929,0.313983917236,0.470975875854
1304220716227816104,0.47150477767,0.47150477767
1304220716267898082,0.314329594374,0.314329594374
1304220716307847976,0.314014613628,0.314014613628
1304220716347883939,0.470870286226,0.470870286226
1304220716387886047,0.314618855715,0.314618855715
1304220716427838087,0.314182221889,0.314182221889
1304220716467787027,0.313593685627,0.313593685627
1304220716507909059,0.47205337882,0.314702242613
1304220716547930955,0.314237117767,0.471355676651
1304220716603955030,0.448459178209,0.336344391108
1304220716631937980,0.224710464478,0.224710464478
1304220716667810916,0.348763644695,0.348763644695
1304220716707839012,0.471245259047,0.471245259047
1304220716747883081,0.313844352961,0.313844352961
1304220716787811040,0.314671933651,0.314671933651
1304220716827980995,0.47027772665,0.313518494368
1304220716867882966,0.314756423235,0.314756423235
1304220716904480934,0.342686623335,0.514029920101
1304220716951920986,0.398349016905,0.265565991402
1304220716987356901,0.354403674603,0.354403674603
1304220717027884006,0.309745788574,0.309745788574
1304220717067867994,0.471593171358,0.471593171358
1304220717107950925,0.313879847527,0.313879847527
1304220717147814989,0.314448386431,0.314448386431
1304220717187455892,0.474867075682,0.316578060389
1304220717228276968,0.309375286102,0.309375286102
1304220717268088102,0.471208572388,0.471208572388
1304220717308042049,0.314375072718,0.471562594175
1304220717348217964,0.313876539469,0.470814794302
1304220717388052940,0.314359635115,0.314359635115
1304220717428075075,0.47095990181,0.47095990181
1304220717468203067,0.314132392406,0.47119858861
1304220717508133888,0.313942372799,0.470913559198
1304220717548046112,0.472184330225,0.314789563417
1304220717588176012,0.313802272081,0.313802272081
1304220717628030061,0.314607530832,0.314607530832
1304220717668100118,0.470617622137,0.470617622137
1304220717708211898,0.314082562923,0.314082562923
1304220717748104095,0.314203202724,0.314203202724
1304220717788075923,0.471187084913,0.31412473321
1304220717828201055,0.314156264067,0.314156264067
1304220717868159055,0.471297472715,0.471297472715
1304220717908097028,0.314171433449,0.314171433449
1304220717943164110,0.359386861324,0.359386861324
1304220717984101057,0.306440681219,0.306440681219
1304220718024095058,0.471359282732,0.314239531755
1304220718068116903,0.285539478064,0.428309231997
1304220718103991031,0.524178504944,0.524178504944
1304220718144040107,0.313772439957,0.313772439957
1304220718184098005,0.314258724451,0.471388071775
1304220718224081039,0.471201896667,0.471201896667
1304220718264053106,0.314446926117,0.314446926117
1304220718308110952,0.285215348005,0.427823007107
1304220718344114065,0.349183619022,0.523775458336
1304220718384088993,0.471453607082,0.314302414656
1304220718424102067,0.31409060955,0.31409060955
1304220718464169979,0.471133649349,0.314089089632
1304220718504103899,0.314276516438,0.471414744854
1304220718544260025,0.313330262899,0.313330262899
1304220718584135055,0.314855903387,0.314855903387
1304220718624119043,0.471306502819,0.314204335213
1304220718664087057,0.31413257122,0.471198856831
1304220718704111099,0.471269577742,0.471269577742
1304220718744040012,0.314303278923,0.471454918385
1304220718784058094,0.314083576202,0.314083576202
1304220718824106931,0.471516281366,0.471516281366
1304220718864033937,0.314182698727,0.314182698727
1304220718904144048,0.313964605331,0.470946907997
1304220718944195985,0.31408649683,0.471129745245
1304220718983071088,0.484226435423,0.484226435423
1304220719024142026,0.305974155664,0.305974155664
1304220719064153909,0.471176475286,0.471176475286
1304220719104015111,0.314692735672,0.47203913331
1304220719144126892,0.313671559095,0.470507323742
1304220719184228897,0.313727229834,0.313727229834
1304220719224097967,0.471981108189,0.471981108189
1304220719264034032,0.470970958471,0.313980638981
1304220719304104089,0.314302146435,0.314302146435
1304220719344099044,0.471268385649,0.314178913832
1304220719384116888,0.313956588507,0.470934897661
1304220719424072027,0.314610898495,0.314610898495
1304220719468107938,0.428427577019,0.285618364811
1304220719512192010,0.285258501768,0.427887737751
1304220719548172950,0.523969292641,0.349312871695
1304220719588133096,0.31443053484,0.31443053484
1304220719628163099,0.313928127289,0.313928127289
1304220719668169975,0.471180826426,0.314120560884
1304220719708147048,0.314446002245,0.314446002245
1304220719748183012,0.313778370619,0.313778370619
1304220719788175106,0.471354603767,0.314236402512
1304220719828203916,0.470875114202,0.313916742802
1304220719868179082,0.47153404355,0.314356029034
1304220719908109903,0.314459204674,0.314459204674
1304220719948170900,0.47087687254,0.47087687254
1304220719988241910,0.313614726067,0.313614726067
1304220720028165102,0.314745754004,0.472118645906
1304220720068108081,0.314368546009,0.314368546009
1304220720108107089,0.471582591534,0.314388394356
1304220720144048929,0.349322199821,0.523983299732
1304220720183562994,0.476902604103,0.317935079336
1304220720227576971,0.428375005722,0.428375005722
1304220720271590948,0.428189665079,0.428189665079
1304220720311647891,0.470617383718,0.313744932413
1304220720351706027,0.313719332218,0.470578998327
1304220720391663074,0.314445316792,0.471667975187
1304220720427702903,0.523643553257,0.349095702171
1304220720475564002,0.261950105429,0.523900210857
1304220720511672973,0.349050343037,0.349050343037
1304220720547668933,0.349366515875,0.349366515875
1304220720587706089,0.313874661922,0.313874661922
1304220720627559900,0.314493656158,0.47174051404
1304220720667637109,0.471185058355,0.314123362303
1304220720707679986,0.31408432126,0.47112646699
1304220720747595071,0.470992237329,0.313994824886
1304220720787672042,0.313978135586,0.470967203379
1304220720827636957,0.314629405737,0.471944123507
1304220720867554903,0.314171731472,0.314171731472
1304220720907624959,0.470963925123,0.470963925123
1304220720947653055,0.471544802189,0.314363211393
1304220720987615108,0.313454300165,0.313454300165
1304220721027496099,0.314978808165,0.472468227148
1304220721067614078,0.471181005239,0.314120680094
1304220721107593059,0.3138448596,0.4707672894
1304220721147535085,0.314513146877,0.314513146877
1304220721187639951,0.470816552639,0.313877701759
1304220721227570056,0.471424162388,0.471424162388
1304220721267581939,0.471137940884,0.314091950655
1304220721307327985,0.316620141268,0.316620141268
1304220721347551107,0.46813839674,0.312092274427
1304220721387618064,0.313634067774,0.313634067774
1304220721427551031,0.471331268549,0.314220845699
1304220721467622995,0.314308851957,0.314308851957
1304220721507642030,0.313692331314,0.313692331314
1304220721547636985,0.314601570368,0.471902340651
1304220721587610006,0.470878899097,0.313919275999
1304220721627583026,0.31445530057,0.31445530057
1304220721667651891,0.471021950245,0.314014643431
1304220721707658052,0.314022630453,0.471033930779
1304220721747618913,0.314417421818,0.314417421818
1304220721787674903,0.470745146275,0.470745146275
1304220721827579021,0.471839845181,0.314559906721
1304220721867630004,0.314028829336,0.471043258905
1304220721907717943,0.470806777477,0.470806777477
1304220721947163105,0.318424224854,0.318424224854
1304220721987828016,0.308177292347,0.46226593852
1304220722027920961,0.314108014107,0.314108014107
1304220722067888975,0.471316605806,0.314211070538
1304220722107760906,0.314606666565,0.314606666565
1304220722147902011,0.313930094242,0.313930094242
1304220722187833070,0.471285939217,0.314190626144
1304220722227878093,0.471204102039,0.471204102039
1304220722267909049,0.471289366484,0.314192920923
1304220722307878971,0.313910633326,0.313910633326
1304220722347930908,0.470981895924,0.313987910748
1304220722387919902,0.314274758101,0.47141212225
1304220722427881956,0.471255034208,0.314170002937
1304220722467914104,0.313993573189,0.470990329981
1304220722507917881,0.314301818609,0.314301818609
1304220722547434091,0.317885458469,0.476828157902
1304220722587857961,0.465860873461,0.465860873461
1304220722627897977,0.314381986856,0.314381986856
1304220722667900085,0.470803141594,0.470803141594
1304220722707875013,0.314500361681,0.47175052762
1304220722747924089,0.470746338367,0.313830882311
1304220722787861108,0.314186275005,0.471279412508
1304220722827822923,0.314435243607,0.314435243607
1304220722867949962,0.470851659775,0.470851659775
1304220722907243013,0.318722993135,0.478084504604
1304220722947808027,0.309997439384,0.309997439384
1304220722987924098,0.471162110567,0.471162110567
1304220723027857065,0.313942342997,0.313942342997
1304220723067827939,0.31422150135,0.31422150135
1304220723107101917,0.480810642242,0.480810642242
1304220723147819042,0.307766854763,0.461650282145
1304220723187839031,0.314619839191,0.314619839191
1304220723227957010,0.313830047846,0.470745056868
1304220723267808914,0.471442550421,0.31429502368
1304220723307497024,0.316798686981,0.475198030472
1304220723347856044,0.468010962009,0.312007308006
